[
  {
    "id": 2,
    "name": "Pałac Kultury i Nauki",
    "city": "Warszawa",
    "location": {
      "latitude": 52.2319581,
      "longitude": 21.0067249
    }
  },
  {
    "id": 3,
    "name": "Zamek Królewski",
    "city": "Warszawa",
    "location": {
      "latitude": 52.2479599,
      "longitude": 21.0135324
    }
  },
  {
    "id": 4,
    "name": "Zamek Książ",
    "city": "Wałbrzych",
    "location": {
      "latitude": 50.8425105,
      "longitude": 16.2878557
    }
  },
  {
    "id": 5,
    "name": "Zamek w Malborku",
    "city": "Malbork",
    "location": {
      "latitude": 54.040557,
      "longitude": 19.025983
    }
  },
  {
    "id": 6,
    "name": "Zamek Krzyżacki",
    "city": "Toruń",
    "location": {
      "latitude": 53.011574,
      "longitude": 18.603462
    }
  },
  {
    "id": 7,
    "name": "Zamek w Niedzicy",
    "city": "Niedzica",
    "location": {
      "latitude": 49.421458,
      "longitude": 20.320217
    }
  },
  {
    "id": 8,
    "name": "Zamek Czocha",
    "city": "Leśna",
    "location": {
      "latitude": 51.033331,
      "longitude": 15.282476
    }
  },
  {
    "id": 9,
    "name": "Zamek w Mosznej",
    "city": "Moszna",
    "location": {
      "latitude": 50.433306,
      "longitude": 17.806413
    }
  },
  {
    "id": 10,
    "name": "Zamek w Kórniku",
    "city": "Kórnik",
    "location": {
      "latitude": 52.245313,
      "longitude": 17.085365
    }
  },
  {
    "id": 11,
    "name": "Zamek Grodno",
    "city": "Zagórze Śląskie",
    "location": {
      "latitude": 50.734926,
      "longitude": 16.429939
    }
  }
]